[
    {
        "name": "Monomax",
        "address": "ул. Куйбышева,69,",
        "phone": "+375172433215",
        "coordinates": "53.92095828383601, 27.576141499999988"
    },
    {
        "name": "Monomax",
        "address": "ул. Кропоткина, 72 (ювелирный центр)",
        "phone": "+375173342686",
        "coordinates": "53.91836478386761, 27.557779500000027"
    },
    {
        "name": "Monomax",
        "address": "пр-т Партизанский, 150А (ТРЦ МОМО)",
        "phone": "+375172702356",
        "coordinates": "53.85993365, 27.673879039987437"
    },
    {
        "name": "Monomax",
        "address": "пр-т Дзержинского, 104 (ТРЦ Титан)",
        "phone": "+375173364272",
        "coordinates": "53.86173928404149, 27.480183499999995"
    },
    {
        "name": "Monomax",
        "address": "ул. Притыцкого, 156 (ТРЦ GreenCity)",
        "phone": "+375173195722",
        "coordinates": "53.9085033, 27.432121"
    },
    {
        "name": "Monomax",
        "address": "ул. П. Мстиславца, 11 (ТРЦ DanaMall)",
        "phone": "+375172516899",
        "coordinates": "53.93360857063322, 27.652156500000025"
    },
    {
        "name": "Monomax",
        "address": "ул.Тимирязева, 74А (ТРЦ Palazzo)",
        "phone": "+375172274279",
        "coordinates": "53.927029070645496, 27.50984549999993"
    },
    {
        "name": "Monomax",
        "address": "Минск МКАД, 50-й километр Минский район, пересечение ул. Мирошниченко (ТРЦ Expobel)",
        "phone": "+375172246252",
        "coordinates": "53.96424936324902, 27.624484716156015"
    },
    {
        "name": "Monomax",
        "address": "ул.Бобруйская, 6 (ТРЦ Galileo)",
        "phone": "+375 (17) 224 06 30",
        "coordinates": "53.890245,  27.554384"
    }
]